[{"name": "강북삼성병원", "gu": "종로구", "lat": 37.5684083, "lon": 126.96775, "is_er": true, "beds": 850, "type": "상급종합"}, {"name": "건국대학교병원", "gu": "광진구", "lat": 37.5403764, "lon": 127.0718276, "is_er": true, "beds": 850, "type": "상급종합"}, {"name": "경희대학교병원", "gu": "동대문구", "lat": 37.5941195, "lon": 127.051852, "is_er": true, "beds": 850, "type": "상급종합"}, {"name": "고려대학교의과대학부속구로병원", "gu": "구로구", "lat": 37.492052, "lon": 126.8848701, "is_er": true, "beds": 850, "type": "상급종합"}, {"name": "삼성서울병원", "gu": "강남구", "lat": 37.4882977, "lon": 127.0851508, "is_er": true, "beds": 850, "type": "상급종합"}, {"name": "서울대학교병원", "gu": "종로구", "lat": 37.5797151, "lon": 126.9990168, "is_er": true, "beds": 850, "type": "상급종합"}, {"name": "연세대학교의과대학 강남세브란스병원", "gu": "강남구", "lat": 37.4929296, "lon": 127.0462683, "is_er": true, "beds": 850, "type": "상급종합"}, {"name": "연세대학교의과대학세브란스병원", "gu": "서대문구", "lat": 37.5623446, "lon": 126.9408265, "is_er": true, "beds": 850, "type": "상급종합"}, {"name": "이화여자대학교의과대학부속목동병원", "gu": "양천구", "lat": 37.536602, "lon": 126.8862043, "is_er": true, "beds": 850, "type": "상급종합"}, {"name": "재단법인아산사회복지재단 서울아산병원", "gu": "송파구", "lat": 37.5265762, "lon": 127.107935, "is_er": true, "beds": 850, "type": "상급종합"}, {"name": "중앙대학교병원", "gu": "동작구", "lat": 37.5067481, "lon": 126.9607839, "is_er": true, "beds": 850, "type": "상급종합"}, {"name": "학교법인 고려중앙학원 고려대학교의과대학부속병원(안암병원)", "gu": "성북구", "lat": 37.5870165, "lon": 127.0263537, "is_er": true, "beds": 850, "type": "상급종합"}, {"name": "학교법인가톨릭학원가톨릭대학교서울성모병원", "gu": "서초구", "lat": 37.5009444, "lon": 127.0051154, "is_er": true, "beds": 850, "type": "상급종합"}, {"name": "한양대학교병원", "gu": "성동구", "lat": 37.5596569, "lon": 127.0441339, "is_er": true, "beds": 850, "type": "상급종합"}, {"name": "가톨릭대학교 여의도성모병원", "gu": "영등포구", "lat": 37.5183253, "lon": 126.9367517, "is_er": true, "beds": 330, "type": "종합병원"}, {"name": "가톨릭대학교 은평성모병원", "gu": "은평구", "lat": 37.6334945, "lon": 126.9161912, "is_er": true, "beds": 330, "type": "종합병원"}, {"name": "강남베드로병원", "gu": "강남구", "lat": 37.4856196, "lon": 127.0396045, "is_er": false, "beds": 330, "type": "종합병원"}, {"name": "강동경희대학교병원", "gu": "강동구", "lat": 37.553536, "lon": 127.1576732, "is_er": true, "beds": 330, "type": "종합병원"}, {"name": "경찰병원", "gu": "송파구", "lat": 37.4963836, "lon": 127.1235089, "is_er": true, "beds": 330, "type": "종합병원"}, {"name": "구로성심병원", "gu": "구로구", "lat": 37.4996715, "lon": 126.8664159, "is_er": true, "beds": 330, "type": "종합병원"}, {"name": "국립중앙의료원", "gu": "중구", "lat": 37.5672137, "lon": 127.0056709, "is_er": true, "beds": 330, "type": "종합병원"}, {"name": "기쁨병원", "gu": "서초구", "lat": 37.4827157, "lon": 127.0180814, "is_er": true, "beds": 330, "type": "종합병원"}, {"name": "노원을지대학교병원", "gu": "노원구", "lat": 37.6364793, "lon": 127.0699354, "is_er": true, "beds": 330, "type": "종합병원"}, {"name": "녹색병원", "gu": "중랑구", "lat": 37.5835731, "lon": 127.0860738, "is_er": true, "beds": 330, "type": "종합병원"}, {"name": "대림성모병원", "gu": "영등포구", "lat": 37.4906979, "lon": 126.9072208, "is_er": true, "beds": 330, "type": "종합병원"}, {"name": "명지성모병원", "gu": "영등포구", "lat": 37.4938623, "lon": 126.8992626, "is_er": true, "beds": 330, "type": "종합병원"}, {"name": "미즈메디병원", "gu": "강서구", "lat": 37.5522178, "lon": 126.8359357, "is_er": false, "beds": 330, "type": "종합병원"}, {"name": "부민병원", "gu": "강서구", "lat": 37.556866, "lon": 126.8509273, "is_er": true, "beds": 330, "type": "종합병원"}, {"name": "삼육서울병원", "gu": "동대문구", "lat": 37.5879909, "lon": 127.0653065, "is_er": true, "beds": 330, "type": "종합병원"}, {"name": "서울성심병원", "gu": "동대문구", "lat": 37.5843076, "lon": 127.0497296, "is_er": true, "beds": 330, "type": "종합병원"}, {"name": "서울적십자병원", "gu": "종로구", "lat": 37.5671805, "lon": 126.9669974, "is_er": true, "beds": 330, "type": "종합병원"}, {"name": "서울특별시 동부병원", "gu": "동대문구", "lat": 37.5753681, "lon": 127.0313409, "is_er": true, "beds": 330, "type": "종합병원"}, {"name": "서울특별시보라매병원", "gu": "동작구", "lat": 37.4934414, "lon": 126.9239058, "is_er": true, "beds": 330, "type": "종합병원"}, {"name": "서울특별시서남병원", "gu": "양천구", "lat": 37.5120195, "lon": 126.8331531, "is_er": true, "beds": 330, "type": "종합병원"}, {"name": "서울특별시서울의료원", "gu": "중랑구", "lat": 37.6132762, "lon": 127.0978309, "is_er": true, "beds": 330, "type": "종합병원"}, {"name": "서울현대병원", "gu": "강북구", "lat": 37.6402555, "lon": 127.0285199, "is_er": false, "beds": 330, "type": "종합병원"}, {"name": "성심의료재단강동성심병원", "gu": "강동구", "lat": 37.5359971, "lon": 127.135378, "is_er": true, "beds": 330, "type": "종합병원"}, {"name": "성애의료재단 성애병원", "gu": "영등포구", "lat": 37.5120274, "lon": 126.9225003, "is_er": true, "beds": 330, "type": "종합병원"}, {"name": "세란병원", "gu": "종로구", "lat": 37.5751835, "lon": 126.9574606, "is_er": true, "beds": 330, "type": "종합병원"}, {"name": "순천향대학교 부속 서울병원", "gu": "용산구", "lat": 37.533804, "lon": 127.0042579, "is_er": true, "beds": 330, "type": "종합병원"}, {"name": "씨엠병원", "gu": "영등포구", "lat": 37.5188597, "lon": 126.9041862, "is_er": true, "beds": 330, "type": "종합병원"}, {"name": "우리들병원", "gu": "강서구", "lat": 37.5620454, "lon": 126.7963265, "is_er": false, "beds": 330, "type": "종합병원"}, {"name": "의료법인 청구성심병원", "gu": "은평구", "lat": 37.6208615, "lon": 126.9197006, "is_er": true, "beds": 330, "type": "종합병원"}, {"name": "의료법인동신의료재단 동신병원", "gu": "서대문구", "lat": 37.5813323, "lon": 126.9364251, "is_er": true, "beds": 330, "type": "종합병원"}, {"name": "의료법인서울효천의료재단 에이치플러스양지병원", "gu": "관악구", "lat": 37.4841536, "lon": 126.9325692, "is_er": true, "beds": 330, "type": "종합병원"}, {"name": "의료법인성화의료재단  대한병원", "gu": "강북구", "lat": 37.6354747, "lon": 127.0226914, "is_er": false, "beds": 330, "type": "종합병원"}, {"name": "의료법인풍산의료재단동부제일병원", "gu": "중랑구", "lat": 37.6007085, "lon": 127.1090094, "is_er": true, "beds": 330, "type": "종합병원"}, {"name": "의료법인한전의료재단 한일병원", "gu": "도봉구", "lat": 37.6461401, "lon": 127.0291228, "is_er": true, "beds": 330, "type": "종합병원"}, {"name": "이화여자대학교의과대학부속서울병원", "gu": "강서구", "lat": 37.5572629, "lon": 126.8362668, "is_er": true, "beds": 330, "type": "종합병원"}, {"name": "인제대학교 상계백병원", "gu": "노원구", "lat": 37.6485408, "lon": 127.0629909, "is_er": true, "beds": 330, "type": "종합병원"}, {"name": "재단법인베스티안재단베스티안서울병원", "gu": "성동구", "lat": 37.5651103, "lon": 127.0280199, "is_er": false, "beds": 330, "type": "종합병원"}, {"name": "차의과학대학교 강남차병원", "gu": "강남구", "lat": 37.5067005, "lon": 127.0345427, "is_er": false, "beds": 330, "type": "종합병원"}, {"name": "한국보훈복지의료공단 중앙보훈병원", "gu": "강동구", "lat": 37.5303393, "lon": 127.1478691, "is_er": true, "beds": 330, "type": "종합병원"}, {"name": "한국원자력의학원원자력병원", "gu": "노원구", "lat": 37.6288667, "lon": 127.0824198, "is_er": true, "beds": 330, "type": "종합병원"}, {"name": "한림대학교 강남성심병원", "gu": "영등포구", "lat": 37.4937262, "lon": 126.9086527, "is_er": true, "beds": 330, "type": "종합병원"}, {"name": "한림대학교 한강성심병원", "gu": "영등포구", "lat": 37.5231702, "lon": 126.9096811, "is_er": false, "beds": 330, "type": "종합병원"}, {"name": "혜민병원", "gu": "광진구", "lat": 37.5354079, "lon": 127.0836246, "is_er": true, "beds": 330, "type": "종합병원"}, {"name": "홍익병원", "gu": "양천구", "lat": 37.5284838, "lon": 126.8636551, "is_er": true, "beds": 330, "type": "종합병원"}, {"name": "희명병원", "gu": "금천구", "lat": 37.4556869, "lon": 126.9005836, "is_er": true, "beds": 330, "type": "종합병원"}, {"name": "(의)가산의료재단 광동병원", "gu": "강남구", "lat": 37.5142863, "lon": 127.0621662, "is_er": false, "beds": 100, "type": "병원"}, {"name": "123스텝업병원", "gu": "강동구", "lat": 37.537382, "lon": 127.1234953, "is_er": false, "beds": 100, "type": "병원"}, {"name": "365엠씨(mc)병원", "gu": "서초구", "lat": 37.4929843, "lon": 127.0141365, "is_er": false, "beds": 100, "type": "병원"}, {"name": "9988병원", "gu": "성동구", "lat": 37.5585817, "lon": 127.0375193, "is_er": false, "beds": 100, "type": "병원"}, {"name": "가자연세병원", "gu": "서대문구", "lat": 37.5689576, "lon": 126.9165989, "is_er": false, "beds": 100, "type": "병원"}, {"name": "강남고려병원", "gu": "관악구", "lat": 37.4856349, "lon": 126.9567943, "is_er": false, "beds": 100, "type": "병원"}, {"name": "강남수병원", "gu": "송파구", "lat": 37.5013402, "lon": 127.0861578, "is_er": false, "beds": 100, "type": "병원"}, {"name": "강남유나이티드병원", "gu": "강남구", "lat": 37.4849802, "lon": 127.0351301, "is_er": false, "beds": 100, "type": "병원"}, {"name": "강남을지대학교병원", "gu": "강남구", "lat": 37.5194124, "lon": 127.0286438, "is_er": false, "beds": 100, "type": "병원"}, {"name": "강남제이에스병원", "gu": "강남구", "lat": 37.4899185, "lon": 127.033745, "is_er": false, "beds": 100, "type": "병원"}, {"name": "강남지인병원", "gu": "강남구", "lat": 37.5127891, "lon": 127.03505, "is_er": false, "beds": 100, "type": "병원"}, {"name": "강남초이스병원", "gu": "강남구", "lat": 37.5047776, "lon": 127.0484885, "is_er": false, "beds": 100, "type": "병원"}, {"name": "강남힐병원", "gu": "관악구", "lat": 37.4815953, "lon": 126.9117246, "is_er": false, "beds": 100, "type": "병원"}, {"name": "강남힘찬병원", "gu": "송파구", "lat": 37.5075981, "lon": 127.1099004, "is_er": false, "beds": 100, "type": "병원"}, {"name": "강동아너스힐병원", "gu": "강동구", "lat": 37.5366086, "lon": 127.1392273, "is_er": false, "beds": 100, "type": "병원"}, {"name": "강동연세병원", "gu": "강동구", "lat": 37.5467696, "lon": 127.1266323, "is_er": false, "beds": 100, "type": "병원"}, {"name": "강북21세기병원", "gu": "중랑구", "lat": 37.594048, "lon": 127.0856598, "is_er": false, "beds": 100, "type": "병원"}, {"name": "강북연세병원", "gu": "노원구", "lat": 37.6191956, "lon": 127.0754877, "is_er": false, "beds": 100, "type": "병원"}, {"name": "강북우리병원", "gu": "강북구", "lat": 37.6425442, "lon": 127.022638, "is_er": false, "beds": 100, "type": "병원"}, {"name": "강북으뜸병원", "gu": "강북구", "lat": 37.6254286, "lon": 127.026202, "is_er": false, "beds": 100, "type": "병원"}, {"name": "강서바른세상병원", "gu": "강서구", "lat": 37.5661467, "lon": 126.8116185, "is_er": false, "beds": 100, "type": "병원"}, {"name": "강서송도병원", "gu": "강서구", "lat": 37.5585273, "lon": 126.8427872, "is_er": false, "beds": 100, "type": "병원"}, {"name": "강서케이병원", "gu": "강서구", "lat": 37.537373, "lon": 126.8367214, "is_er": false, "beds": 100, "type": "병원"}, {"name": "강서푸른꿈성모어린이병원", "gu": "강서구", "lat": 37.5592839, "lon": 126.8457301, "is_er": false, "beds": 100, "type": "병원"}, {"name": "강서힘찬병원", "gu": "강서구", "lat": 37.5592035, "lon": 126.8406822, "is_er": false, "beds": 100, "type": "병원"}, {"name": "강철병원", "gu": "송파구", "lat": 37.5023107, "lon": 127.0942945, "is_er": false, "beds": 100, "type": "병원"}, {"name": "건양의료재단 김안과병원", "gu": "영등포구", "lat": 37.5197392, "lon": 126.9014955, "is_er": false, "beds": 100, "type": "병원"}, {"name": "고도일병원", "gu": "서초구", "lat": 37.5070301, "lon": 127.0227848, "is_er": false, "beds": 100, "type": "병원"}, {"name": "고은빛여성병원", "gu": "강동구", "lat": 37.5341574, "lon": 127.1393602, "is_er": false, "beds": 100, "type": "병원"}, {"name": "공안과병원", "gu": "강동구", "lat": 37.533932, "lon": 127.1260445, "is_er": false, "beds": 100, "type": "병원"}, {"name": "광혜병원", "gu": "강남구", "lat": 37.5081452, "lon": 127.0647911, "is_er": false, "beds": 100, "type": "병원"}, {"name": "국립재활원", "gu": "강북구", "lat": 37.6388781, "lon": 127.0105162, "is_er": false, "beds": 100, "type": "병원"}, {"name": "금강아산병원(재단법인 아산사회복지재단)", "gu": "용산구", "lat": 37.5176285, "lon": 126.9818432, "is_er": false, "beds": 100, "type": "병원"}, {"name": "금천수병원", "gu": "금천구", "lat": 37.4800294, "lon": 126.9064303, "is_er": false, "beds": 100, "type": "병원"}, {"name": "김정수여러분병원", "gu": "강남구", "lat": 37.5072251, "lon": 127.0325991, "is_er": false, "beds": 100, "type": "병원"}, {"name": "나누리병원", "gu": "강남구", "lat": 37.5203058, "lon": 127.034005, "is_er": false, "beds": 100, "type": "병원"}, {"name": "날개병원", "gu": "동대문구", "lat": 37.5816364, "lon": 127.0295094, "is_er": false, "beds": 100, "type": "병원"}, {"name": "남기세병원", "gu": "강동구", "lat": 37.5346934, "lon": 127.137523, "is_er": false, "beds": 100, "type": "병원"}, {"name": "낭만병원", "gu": "동작구", "lat": 37.4825532, "lon": 126.9814925, "is_er": false, "beds": 100, "type": "병원"}, {"name": "누네안과병원", "gu": "강남구", "lat": 37.5044651, "lon": 127.0504171, "is_er": false, "beds": 100, "type": "병원"}, {"name": "뉴민병원", "gu": "서초구", "lat": 37.4930421, "lon": 126.9899521, "is_er": false, "beds": 100, "type": "병원"}, {"name": "뉴스타트병원", "gu": "송파구", "lat": 37.4991188, "lon": 127.1194989, "is_er": false, "beds": 100, "type": "병원"}, {"name": "늘찬병원", "gu": "중랑구", "lat": 37.587994, "lon": 127.0796571, "is_er": false, "beds": 100, "type": "병원"}, {"name": "다일천사병원", "gu": "동대문구", "lat": 37.5765433, "lon": 127.0477019, "is_er": false, "beds": 100, "type": "병원"}, {"name": "달려라병원", "gu": "강동구", "lat": 37.5347217, "lon": 127.1347351, "is_er": false, "beds": 100, "type": "병원"}, {"name": "담소유병원", "gu": "강남구", "lat": 37.5148664, "lon": 127.0346344, "is_er": false, "beds": 100, "type": "병원"}, {"name": "대항병원", "gu": "서초구", "lat": 37.475619, "lon": 126.9878808, "is_er": false, "beds": 100, "type": "병원"}, {"name": "더드림병원", "gu": "강남구", "lat": 37.5009956, "lon": 127.0509906, "is_er": false, "beds": 100, "type": "병원"}, {"name": "더서울병원", "gu": "성북구", "lat": 37.5942338, "lon": 127.0165047, "is_er": false, "beds": 100, "type": "병원"}, {"name": "더셀채원병원", "gu": "강동구", "lat": 37.527672, "lon": 127.1270901, "is_er": false, "beds": 100, "type": "병원"}, {"name": "더힐병원", "gu": "송파구", "lat": 37.4987751, "lon": 127.1204037, "is_er": false, "beds": 100, "type": "병원"}, {"name": "덕수의료재단 서울브레인병원", "gu": "영등포구", "lat": 37.5200503, "lon": 126.9018257, "is_er": false, "beds": 100, "type": "병원"}, {"name": "두발로병원", "gu": "강남구", "lat": 37.5243393, "lon": 127.0294194, "is_er": false, "beds": 100, "type": "병원"}, {"name": "디앤에프병원", "gu": "중랑구", "lat": 37.601489, "lon": 127.0814897, "is_er": false, "beds": 100, "type": "병원"}, {"name": "러스크서울병원", "gu": "중랑구", "lat": 37.6001415, "lon": 127.1043415, "is_er": false, "beds": 100, "type": "병원"}, {"name": "로이병원", "gu": "종로구", "lat": 37.6068376, "lon": 126.9690288, "is_er": false, "beds": 100, "type": "병원"}, {"name": "리더스병원", "gu": "강동구", "lat": 37.5369609, "lon": 127.1277443, "is_er": false, "beds": 100, "type": "병원"}, {"name": "리드힐병원", "gu": "은평구", "lat": 37.6000012, "lon": 126.9164512, "is_er": false, "beds": 100, "type": "병원"}, {"name": "린여성병원", "gu": "동대문구", "lat": 37.572328, "lon": 127.0698145, "is_er": false, "beds": 100, "type": "병원"}, {"name": "마디세상병원", "gu": "중랑구", "lat": 37.6098944, "lon": 127.0782087, "is_er": false, "beds": 100, "type": "병원"}, {"name": "메드렉스병원", "gu": "강남구", "lat": 37.5148973, "lon": 127.0299828, "is_er": false, "beds": 100, "type": "병원"}, {"name": "메디아이여성병원", "gu": "노원구", "lat": 37.6564674, "lon": 127.067062, "is_er": false, "beds": 100, "type": "병원"}, {"name": "메디힐병원", "gu": "양천구", "lat": 37.5372174, "lon": 126.8278769, "is_er": false, "beds": 100, "type": "병원"}, {"name": "모두가행복한연세병원", "gu": "강남구", "lat": 37.5217105, "lon": 127.0392399, "is_er": false, "beds": 100, "type": "병원"}, {"name": "목동제일여성병원", "gu": "양천구", "lat": 37.5230563, "lon": 126.8518725, "is_er": false, "beds": 100, "type": "병원"}, {"name": "목동현대웰병원", "gu": "구로구", "lat": 37.505574, "lon": 126.8604343, "is_er": false, "beds": 100, "type": "병원"}, {"name": "미래본병원", "gu": "송파구", "lat": 37.5153483, "lon": 127.0995242, "is_er": false, "beds": 100, "type": "병원"}, {"name": "미병원", "gu": "강남구", "lat": 37.5234744, "lon": 127.0312234, "is_er": false, "beds": 100, "type": "병원"}, {"name": "민병원", "gu": "강북구", "lat": 37.6226164, "lon": 127.0272803, "is_er": false, "beds": 100, "type": "병원"}, {"name": "민트병원", "gu": "송파구", "lat": 37.4862139, "lon": 127.1159205, "is_er": false, "beds": 100, "type": "병원"}, {"name": "바로선병원", "gu": "도봉구", "lat": 37.6603375, "lon": 127.0421237, "is_er": false, "beds": 100, "type": "병원"}, {"name": "바른본병원", "gu": "광진구", "lat": 37.5537921, "lon": 127.0871436, "is_er": false, "beds": 100, "type": "병원"}, {"name": "바른사랑병원", "gu": "관악구", "lat": 37.4823204, "lon": 126.9290563, "is_er": false, "beds": 100, "type": "병원"}, {"name": "반도정형외과병원", "gu": "중구", "lat": 37.5560086, "lon": 127.010117, "is_er": false, "beds": 100, "type": "병원"}, {"name": "방병원", "gu": "노원구", "lat": 37.6184022, "lon": 127.0750336, "is_er": false, "beds": 100, "type": "병원"}, {"name": "방화병원", "gu": "강서구", "lat": 37.5732419, "lon": 126.814012, "is_er": false, "beds": 100, "type": "병원"}, {"name": "본바움병원", "gu": "은평구", "lat": 37.6110152, "lon": 126.928917, "is_er": false, "beds": 100, "type": "병원"}, {"name": "본서부병원", "gu": "은평구", "lat": 37.6007663, "lon": 126.922605, "is_er": false, "beds": 100, "type": "병원"}, {"name": "비에비스나무병원", "gu": "강남구", "lat": 37.5095709, "lon": 127.0324057, "is_er": false, "beds": 100, "type": "병원"}, {"name": "비에스코아이비인후과병원", "gu": "강서구", "lat": 37.5546873, "lon": 126.8365498, "is_er": false, "beds": 100, "type": "병원"}, {"name": "빠른병원", "gu": "송파구", "lat": 37.5074505, "lon": 127.1097102, "is_er": false, "beds": 100, "type": "병원"}, {"name": "사랑의병원", "gu": "관악구", "lat": 37.4796227, "lon": 126.9562934, "is_er": false, "beds": 100, "type": "병원"}, {"name": "사랑플러스병원", "gu": "강동구", "lat": 37.5466916, "lon": 127.1436234, "is_er": false, "beds": 100, "type": "병원"}, {"name": "사회복지법인 성가소비녀회 성가복지병원", "gu": "성북구", "lat": 37.6069387, "lon": 127.0307411, "is_er": false, "beds": 100, "type": "병원"}, {"name": "삼성미래여성병원", "gu": "구로구", "lat": 37.4912147, "lon": 126.8404114, "is_er": false, "beds": 100, "type": "병원"}, {"name": "새길병원", "gu": "영등포구", "lat": 37.5216832, "lon": 126.9046993, "is_er": false, "beds": 100, "type": "병원"}, {"name": "새로운병원", "gu": "강남구", "lat": 37.5122594, "lon": 127.0243422, "is_er": false, "beds": 100, "type": "병원"}, {"name": "새숨병원", "gu": "송파구", "lat": 37.485699, "lon": 127.1157088, "is_er": false, "beds": 100, "type": "병원"}, {"name": "새움병원", "gu": "금천구", "lat": 37.4730529, "lon": 126.8976554, "is_er": false, "beds": 100, "type": "병원"}, {"name": "새힘병원", "gu": "노원구", "lat": 37.6537182, "lon": 127.0679083, "is_er": false, "beds": 100, "type": "병원"}, {"name": "서울21세기병원", "gu": "서초구", "lat": 37.4852908, "lon": 127.0157273, "is_er": false, "beds": 100, "type": "병원"}, {"name": "서울고든병원", "gu": "강서구", "lat": 37.5554814, "lon": 126.8646913, "is_er": false, "beds": 100, "type": "병원"}, {"name": "서울나은병원", "gu": "동대문구", "lat": 37.5785713, "lon": 127.0387505, "is_er": false, "beds": 100, "type": "병원"}, {"name": "서울노보스병원", "gu": "도봉구", "lat": 37.6718832, "lon": 127.0436246, "is_er": false, "beds": 100, "type": "병원"}, {"name": "서울대효병원", "gu": "금천구", "lat": 37.4544278, "lon": 126.9012036, "is_er": false, "beds": 100, "type": "병원"}, {"name": "서울대효병원", "gu": "강서구", "lat": 37.5511213, "lon": 126.835767, "is_er": false, "beds": 100, "type": "병원"}, {"name": "서울라본병원", "gu": "중랑구", "lat": 37.6003119, "lon": 127.1050937, "is_er": false, "beds": 100, "type": "병원"}, {"name": "서울미즈병원", "gu": "강동구", "lat": 37.5376208, "lon": 127.128117, "is_er": false, "beds": 100, "type": "병원"}, {"name": "서울바른병원", "gu": "영등포구", "lat": 37.5002105, "lon": 126.9199903, "is_er": false, "beds": 100, "type": "병원"}, {"name": "서울바른세상병원", "gu": "금천구", "lat": 37.4712438, "lon": 126.8978236, "is_er": false, "beds": 100, "type": "병원"}, {"name": "서울병원", "gu": "은평구", "lat": 37.608851, "lon": 126.9307507, "is_er": false, "beds": 100, "type": "병원"}, {"name": "서울병원", "gu": "송파구", "lat": 37.5039282, "lon": 127.1247204, "is_er": false, "beds": 100, "type": "병원"}, {"name": "서울본브릿지병원", "gu": "강남구", "lat": 37.4924788, "lon": 127.0424459, "is_er": false, "beds": 100, "type": "병원"}, {"name": "서울석병원", "gu": "송파구", "lat": 37.4937452, "lon": 127.1240445, "is_er": false, "beds": 100, "type": "병원"}, {"name": "서울세계로병원", "gu": "송파구", "lat": 37.4866428, "lon": 127.1422629, "is_er": false, "beds": 100, "type": "병원"}, {"name": "서울센트럴병원", "gu": "관악구", "lat": 37.4810595, "lon": 126.9516001, "is_er": false, "beds": 100, "type": "병원"}, {"name": "서울송도병원", "gu": "중구", "lat": 37.5513137, "lon": 127.0082458, "is_er": false, "beds": 100, "type": "병원"}, {"name": "서울숭인병원", "gu": "종로구", "lat": 37.5740802, "lon": 127.0203571, "is_er": false, "beds": 100, "type": "병원"}, {"name": "서울스타병원", "gu": "강서구", "lat": 37.5532563, "lon": 126.8362212, "is_er": false, "beds": 100, "type": "병원"}, {"name": "서울안강병원", "gu": "서초구", "lat": 37.486403, "lon": 127.0203545, "is_er": false, "beds": 100, "type": "병원"}, {"name": "서울연세병원", "gu": "마포구", "lat": 37.5424658, "lon": 126.9403129, "is_er": false, "beds": 100, "type": "병원"}, {"name": "서울원병원", "gu": "강서구", "lat": 37.5423627, "lon": 126.8393222, "is_er": false, "beds": 100, "type": "병원"}, {"name": "서울유병원", "gu": "강북구", "lat": 37.6160691, "lon": 127.0295679, "is_er": false, "beds": 100, "type": "병원"}, {"name": "서울재활병원", "gu": "은평구", "lat": 37.6057782, "lon": 126.9068531, "is_er": false, "beds": 100, "type": "병원"}, {"name": "서울정병원", "gu": "중랑구", "lat": 37.5796409, "lon": 127.087993, "is_er": false, "beds": 100, "type": "병원"}, {"name": "서울척병원", "gu": "성북구", "lat": 37.6088446, "lon": 127.0293037, "is_er": false, "beds": 100, "type": "병원"}, {"name": "서울큰나무병원", "gu": "강서구", "lat": 37.5444824, "lon": 126.8380461, "is_er": false, "beds": 100, "type": "병원"}, {"name": "서울탑병원", "gu": "동대문구", "lat": 37.5814284, "lon": 127.0360278, "is_er": false, "beds": 100, "type": "병원"}, {"name": "서울특별시 북부병원", "gu": "중랑구", "lat": 37.604325, "lon": 127.1077447, "is_er": false, "beds": 100, "type": "병원"}, {"name": "서울특별시서북병원", "gu": "은평구", "lat": 37.60421, "lon": 126.9044499, "is_er": false, "beds": 100, "type": "병원"}, {"name": "서울특별시어린이병원", "gu": "서초구", "lat": 37.4557936, "lon": 127.0689282, "is_er": false, "beds": 100, "type": "병원"}, {"name": "서울퍼스트병원", "gu": "관악구", "lat": 37.4862977, "lon": 126.9411916, "is_er": false, "beds": 100, "type": "병원"}, {"name": "서울프라임병원", "gu": "광진구", "lat": 37.5408266, "lon": 127.0635902, "is_er": false, "beds": 100, "type": "병원"}, {"name": "서울필병원", "gu": "강서구", "lat": 37.5576762, "lon": 126.8374154, "is_er": false, "beds": 100, "type": "병원"}, {"name": "서울호흡안심병원", "gu": "서대문구", "lat": 37.5889296, "lon": 126.9458032, "is_er": false, "beds": 100, "type": "병원"}, {"name": "서재곤링커병원", "gu": "송파구", "lat": 37.5094802, "lon": 127.1120917, "is_er": false, "beds": 100, "type": "병원"}, {"name": "선수촌병원", "gu": "송파구", "lat": 37.5115631, "lon": 127.0792026, "is_er": false, "beds": 100, "type": "병원"}, {"name": "선한목자병원", "gu": "강남구", "lat": 37.5015847, "lon": 127.0361824, "is_er": false, "beds": 100, "type": "병원"}, {"name": "성북우리아이들병원", "gu": "성북구", "lat": 37.6068633, "lon": 127.0293592, "is_er": false, "beds": 100, "type": "병원"}, {"name": "세바른병원", "gu": "서초구", "lat": 37.4859524, "lon": 127.0153417, "is_er": false, "beds": 100, "type": "병원"}, {"name": "세솟는정형외과병원", "gu": "마포구", "lat": 37.5523808, "lon": 126.9371026, "is_er": false, "beds": 100, "type": "병원"}, {"name": "솔병원", "gu": "강서구", "lat": 37.572376, "lon": 126.8173869, "is_er": false, "beds": 100, "type": "병원"}, {"name": "송파드림재활병원", "gu": "송파구", "lat": 37.4967206, "lon": 127.1221669, "is_er": false, "beds": 100, "type": "병원"}, {"name": "신세계서울병원", "gu": "영등포구", "lat": 37.5165276, "lon": 126.90606, "is_er": false, "beds": 100, "type": "병원"}, {"name": "신일병원", "gu": "강북구", "lat": 37.6347937, "lon": 127.0218488, "is_er": false, "beds": 100, "type": "병원"}, {"name": "신촌연세병원", "gu": "마포구", "lat": 37.5525983, "lon": 126.9337712, "is_er": false, "beds": 100, "type": "병원"}, {"name": "실로암안과병원", "gu": "강서구", "lat": 37.5460226, "lon": 126.8622776, "is_er": false, "beds": 100, "type": "병원"}, {"name": "심정병원", "gu": "관악구", "lat": 37.4823639, "lon": 126.9156675, "is_er": false, "beds": 100, "type": "병원"}, {"name": "아름제일병원", "gu": "구로구", "lat": 37.5054584, "lon": 126.8905378, "is_er": false, "beds": 100, "type": "병원"}, {"name": "아이디병원", "gu": "강남구", "lat": 37.51768, "lon": 127.0241884, "is_er": false, "beds": 100, "type": "병원"}, {"name": "아이비어린이병원", "gu": "구로구", "lat": 37.5066629, "lon": 126.8604877, "is_er": false, "beds": 100, "type": "병원"}, {"name": "아카시아병원", "gu": "금천구", "lat": 37.4680986, "lon": 126.8985537, "is_er": false, "beds": 100, "type": "병원"}, {"name": "양병원", "gu": "강동구", "lat": 37.5340876, "lon": 127.1401353, "is_er": false, "beds": 100, "type": "병원"}, {"name": "어울림병원", "gu": "영등포구", "lat": 37.5133082, "lon": 126.9209727, "is_er": false, "beds": 100, "type": "병원"}, {"name": "에스앤유서울병원", "gu": "강서구", "lat": 37.5594527, "lon": 126.8339126, "is_er": false, "beds": 100, "type": "병원"}, {"name": "에이치큐브병원", "gu": "도봉구", "lat": 37.6583201, "lon": 127.0410736, "is_er": false, "beds": 100, "type": "병원"}, {"name": "엔플러스병원", "gu": "동대문구", "lat": 37.5754527, "lon": 127.0726089, "is_er": false, "beds": 100, "type": "병원"}, {"name": "엠에스병원", "gu": "송파구", "lat": 37.5020324, "lon": 127.096637, "is_er": false, "beds": 100, "type": "병원"}, {"name": "연세건우병원", "gu": "관악구", "lat": 37.4781316, "lon": 126.96162, "is_er": false, "beds": 100, "type": "병원"}, {"name": "연세노블병원", "gu": "은평구", "lat": 37.6040714, "lon": 126.9244756, "is_er": false, "beds": 100, "type": "병원"}, {"name": "연세동작병원", "gu": "동작구", "lat": 37.4989812, "lon": 126.9336821, "is_er": false, "beds": 100, "type": "병원"}, {"name": "연세무척나은병원", "gu": "광진구", "lat": 37.5562714, "lon": 127.0809144, "is_er": false, "beds": 100, "type": "병원"}, {"name": "연세바로척병원", "gu": "성동구", "lat": 37.5444078, "lon": 127.0649225, "is_er": false, "beds": 100, "type": "병원"}, {"name": "연세바른병원", "gu": "동작구", "lat": 37.4843925, "lon": 126.9805813, "is_er": false, "beds": 100, "type": "병원"}, {"name": "연세사랑모아여성병원", "gu": "구로구", "lat": 37.5063641, "lon": 126.8606071, "is_er": false, "beds": 100, "type": "병원"}, {"name": "연세사랑병원", "gu": "서초구", "lat": 37.4740477, "lon": 126.9937383, "is_er": false, "beds": 100, "type": "병원"}, {"name": "연세산돌병원", "gu": "중랑구", "lat": 37.595185, "lon": 127.0988923, "is_er": false, "beds": 100, "type": "병원"}, {"name": "연세슬기병원", "gu": "성동구", "lat": 37.5642758, "lon": 127.0306881, "is_er": false, "beds": 100, "type": "병원"}, {"name": "연세우리병원", "gu": "송파구", "lat": 37.5048272, "lon": 127.0873673, "is_er": false, "beds": 100, "type": "병원"}, {"name": "연세한강병원", "gu": "마포구", "lat": 37.5393783, "lon": 126.9448354, "is_er": false, "beds": 100, "type": "병원"}, {"name": "염창환병원", "gu": "송파구", "lat": 37.5035124, "lon": 127.1253937, "is_er": false, "beds": 100, "type": "병원"}, {"name": "영동병원", "gu": "동대문구", "lat": 37.5632524, "lon": 127.0585634, "is_er": false, "beds": 100, "type": "병원"}, {"name": "예스병원", "gu": "구로구", "lat": 37.491706, "lon": 126.8834154, "is_er": false, "beds": 100, "type": "병원"}, {"name": "올바로병원", "gu": "서초구", "lat": 37.4862375, "lon": 127.0043999, "is_er": false, "beds": 100, "type": "병원"}, {"name": "올바른서울병원", "gu": "강동구", "lat": 37.5420953, "lon": 127.1412951, "is_er": false, "beds": 100, "type": "병원"}, {"name": "올센병원", "gu": "마포구", "lat": 37.5465933, "lon": 126.9403108, "is_er": false, "beds": 100, "type": "병원"}, {"name": "왕십리휴병원", "gu": "동대문구", "lat": 37.5721108, "lon": 127.0312594, "is_er": false, "beds": 100, "type": "병원"}, {"name": "우리들병원", "gu": "강남구", "lat": 37.5190451, "lon": 127.0497016, "is_er": false, "beds": 100, "type": "병원"}, {"name": "원탑병원", "gu": "강서구", "lat": 37.5312662, "lon": 126.8634292, "is_er": false, "beds": 100, "type": "병원"}, {"name": "웰튼병원", "gu": "강서구", "lat": 37.5672498, "lon": 126.825303, "is_er": false, "beds": 100, "type": "병원"}, {"name": "위드힘병원", "gu": "강동구", "lat": 37.536395, "lon": 127.1391046, "is_er": false, "beds": 100, "type": "병원"}, {"name": "위비앙병원", "gu": "마포구", "lat": 37.5569548, "lon": 126.9524149, "is_er": false, "beds": 100, "type": "병원"}, {"name": "유광사여성병원", "gu": "강서구", "lat": 37.5435838, "lon": 126.8388825, "is_er": false, "beds": 100, "type": "병원"}, {"name": "윤호병원", "gu": "강남구", "lat": 37.5288504, "lon": 127.0344243, "is_er": false, "beds": 100, "type": "병원"}, {"name": "은평연세병원", "gu": "은평구", "lat": 37.6146994, "lon": 126.9174726, "is_er": false, "beds": 100, "type": "병원"}, {"name": "의료법인 상원의료재단 강북힘찬병원", "gu": "도봉구", "lat": 37.645661, "lon": 127.033394, "is_er": false, "beds": 100, "type": "병원"}, {"name": "의료법인 서울효천의료재단 에이치플러스재활자립병원", "gu": "구로구", "lat": 37.5019059, "lon": 126.8916155, "is_er": false, "beds": 100, "type": "병원"}, {"name": "의료법인 성누가의료재단 성누가병원", "gu": "은평구", "lat": 37.6104968, "lon": 126.9302534, "is_er": false, "beds": 100, "type": "병원"}, {"name": "의료법인 우리아이들 의료재단 우리아이들병원", "gu": "구로구", "lat": 37.5021368, "lon": 126.88244, "is_er": false, "beds": 100, "type": "병원"}, {"name": "의료법인 우신향병원", "gu": "성북구", "lat": 37.5848991, "lon": 127.0312669, "is_er": false, "beds": 100, "type": "병원"}, {"name": "의료법인 인봉의료재단 영등포병원", "gu": "영등포구", "lat": 37.5268544, "lon": 126.8958262, "is_er": false, "beds": 100, "type": "병원"}, {"name": "의료법인 청해의료재단 제일병원", "gu": "서초구", "lat": 37.4878422, "lon": 126.995067, "is_er": false, "beds": 100, "type": "병원"}, {"name": "의료법인 춘혜의료재단 명지춘혜재활병원", "gu": "영등포구", "lat": 37.5006662, "lon": 126.8970446, "is_er": false, "beds": 100, "type": "병원"}, {"name": "의료법인마리아의료재단마리아병원", "gu": "동대문구", "lat": 37.5742265, "lon": 127.0253291, "is_er": false, "beds": 100, "type": "병원"}, {"name": "의료법인마리아의료재단마리아병원", "gu": "송파구", "lat": 37.4932775, "lon": 127.1244081, "is_er": false, "beds": 100, "type": "병원"}, {"name": "의료법인서광의료재단 성북중앙병원", "gu": "성북구", "lat": 37.5967616, "lon": 127.0356224, "is_er": false, "beds": 100, "type": "병원"}, {"name": "의료법인정애의료재단서울초이스병원", "gu": "송파구", "lat": 37.5338158, "lon": 127.1211679, "is_er": false, "beds": 100, "type": "병원"}, {"name": "의료법인한국의료재단프라임병원", "gu": "중랑구", "lat": 37.6172336, "lon": 127.0794651, "is_er": false, "beds": 100, "type": "병원"}, {"name": "인정병원", "gu": "은평구", "lat": 37.5865312, "lon": 126.9163518, "is_er": false, "beds": 100, "type": "병원"}, {"name": "자이비뇨의학과병원", "gu": "서초구", "lat": 37.5027161, "lon": 127.0217872, "is_er": false, "beds": 100, "type": "병원"}, {"name": "장스여성병원", "gu": "중랑구", "lat": 37.5997087, "lon": 127.0975614, "is_er": false, "beds": 100, "type": "병원"}, {"name": "장튼위튼병원", "gu": "관악구", "lat": 37.4798225, "lon": 126.957342, "is_er": false, "beds": 100, "type": "병원"}, {"name": "정동병원", "gu": "동작구", "lat": 37.5049384, "lon": 126.9494571, "is_er": false, "beds": 100, "type": "병원"}, {"name": "정석병원", "gu": "노원구", "lat": 37.654566, "lon": 127.0636241, "is_er": false, "beds": 100, "type": "병원"}, {"name": "제니스병원", "gu": "광진구", "lat": 37.5464849, "lon": 127.0864991, "is_er": false, "beds": 100, "type": "병원"}, {"name": "제일정형외과병원", "gu": "강남구", "lat": 37.5228163, "lon": 127.0561257, "is_er": false, "beds": 100, "type": "병원"}, {"name": "조앤조병원", "gu": "중랑구", "lat": 37.6003058, "lon": 127.1047339, "is_er": false, "beds": 100, "type": "병원"}, {"name": "조은마디병원", "gu": "강동구", "lat": 37.5343839, "lon": 127.1332256, "is_er": false, "beds": 100, "type": "병원"}, {"name": "조인트힐병원", "gu": "관악구", "lat": 37.4737183, "lon": 126.9175762, "is_er": false, "beds": 100, "type": "병원"}, {"name": "지앤지병원", "gu": "강남구", "lat": 37.5162595, "lon": 127.0597063, "is_er": false, "beds": 100, "type": "병원"}, {"name": "참바로병원", "gu": "중구", "lat": 37.5657465, "lon": 127.0166374, "is_er": false, "beds": 100, "type": "병원"}, {"name": "참튼튼병원", "gu": "동대문구", "lat": 37.5727378, "lon": 127.0693818, "is_er": false, "beds": 100, "type": "병원"}, {"name": "참튼튼병원", "gu": "구로구", "lat": 37.4821457, "lon": 126.9004061, "is_er": false, "beds": 100, "type": "병원"}, {"name": "참포도나무병원", "gu": "서초구", "lat": 37.4799379, "lon": 127.0387018, "is_er": false, "beds": 100, "type": "병원"}, {"name": "척바른병원", "gu": "서초구", "lat": 37.4871379, "lon": 126.9936003, "is_er": false, "beds": 100, "type": "병원"}, {"name": "척편한병원", "gu": "관악구", "lat": 37.4825924, "lon": 126.9302485, "is_er": false, "beds": 100, "type": "병원"}, {"name": "청담병원", "gu": "강남구", "lat": 37.5207651, "lon": 127.0456922, "is_er": false, "beds": 100, "type": "병원"}, {"name": "청담해리슨병원", "gu": "강남구", "lat": 37.5176901, "lon": 127.0511821, "is_er": false, "beds": 100, "type": "병원"}, {"name": "청병원", "gu": "강동구", "lat": 37.5302703, "lon": 127.1210362, "is_er": false, "beds": 100, "type": "병원"}, {"name": "청화병원", "gu": "동작구", "lat": 37.5070602, "lon": 126.9402079, "is_er": false, "beds": 100, "type": "병원"}, {"name": "최원호병원", "gu": "은평구", "lat": 37.6047776, "lon": 126.9238665, "is_er": false, "beds": 100, "type": "병원"}, {"name": "코리아병원", "gu": "동대문구", "lat": 37.5731957, "lon": 127.0715342, "is_er": false, "beds": 100, "type": "병원"}, {"name": "트리니티병원", "gu": "강남구", "lat": 37.5142582, "lon": 127.0586743, "is_er": false, "beds": 100, "type": "병원"}, {"name": "튼튼병원", "gu": "강남구", "lat": 37.5213191, "lon": 127.0557487, "is_er": false, "beds": 100, "type": "병원"}, {"name": "팔팔병원", "gu": "중랑구", "lat": 37.5909515, "lon": 127.0796941, "is_er": false, "beds": 100, "type": "병원"}, {"name": "포그니병원", "gu": "구로구", "lat": 37.4974484, "lon": 126.8630394, "is_er": false, "beds": 100, "type": "병원"}, {"name": "포근한재활병원", "gu": "강북구", "lat": 37.6322981, "lon": 127.0241779, "is_er": false, "beds": 100, "type": "병원"}, {"name": "포레스트병원", "gu": "종로구", "lat": 37.5757769, "lon": 126.9967795, "is_er": false, "beds": 100, "type": "병원"}, {"name": "포미즈여성병원", "gu": "양천구", "lat": 37.5467929, "lon": 126.8723522, "is_er": false, "beds": 100, "type": "병원"}, {"name": "핑크힐병원", "gu": "강서구", "lat": 37.5493061, "lon": 126.8748085, "is_er": false, "beds": 100, "type": "병원"}, {"name": "하나이비인후과병원", "gu": "강남구", "lat": 37.4979277, "lon": 127.0429904, "is_er": false, "beds": 100, "type": "병원"}, {"name": "하늘병원", "gu": "동대문구", "lat": 37.5651838, "lon": 127.0556475, "is_er": false, "beds": 100, "type": "병원"}, {"name": "하병원", "gu": "강남구", "lat": 37.5122681, "lon": 127.0215552, "is_er": false, "beds": 100, "type": "병원"}, {"name": "학교법인대진교육재단 제인병원", "gu": "성동구", "lat": 37.5494673, "lon": 127.0569539, "is_er": false, "beds": 100, "type": "병원"}, {"name": "한강수병원", "gu": "영등포구", "lat": 37.5224111, "lon": 126.8909362, "is_er": false, "beds": 100, "type": "병원"}, {"name": "한솔병원", "gu": "송파구", "lat": 37.5061156, "lon": 127.1059179, "is_er": false, "beds": 100, "type": "병원"}, {"name": "햇빛병원", "gu": "강북구", "lat": 37.6157812, "lon": 127.0302959, "is_er": false, "beds": 100, "type": "병원"}, {"name": "허리나은병원", "gu": "강동구", "lat": 37.5324777, "lon": 127.1376388, "is_er": false, "beds": 100, "type": "병원"}, {"name": "혜민안과병원", "gu": "송파구", "lat": 37.4938555, "lon": 127.1219354, "is_er": false, "beds": 100, "type": "병원"}, {"name": "호산여성병원", "gu": "강남구", "lat": 37.5285704, "lon": 127.0333541, "is_er": false, "beds": 100, "type": "병원"}, {"name": "힘찬병원", "gu": "양천구", "lat": 37.5249722, "lon": 126.8768282, "is_er": false, "beds": 100, "type": "병원"}]